City_ID,City,Country,Date,Lat,Lng,Max Temp,Humidity,Cloudiness,Wind Speed,Weather Description
0,Hermanus,ZA,2022-01-29 21:09:31,-34.4187,19.2345,64.8,76,3,13.76,clear sky
1,Acapulco,MX,2022-01-29 21:09:32,16.8634,-99.8901,84.02,65,20,9.22,few clouds
2,Tasiilaq,GL,2022-01-29 21:09:32,65.6145,-37.6368,15.96,76,94,6.64,overcast clouds
3,Cape Town,ZA,2022-01-29 21:08:15,-33.9258,18.4232,68.11,72,0,4.0,clear sky
4,Codrington,AU,2022-01-29 21:09:32,-38.2667,141.9667,63.81,82,80,6.33,broken clouds
5,Arraial Do Cabo,BR,2022-01-29 21:09:33,-22.9661,-42.0278,75.06,83,75,9.22,light rain
6,Gobabis,NA,2022-01-29 21:09:33,-22.45,18.9667,71.62,67,100,13.89,overcast clouds
7,Mareeba,AU,2022-01-29 21:09:33,-17.0,145.4333,70.52,94,98,1.63,overcast clouds
8,Rikitea,PF,2022-01-29 21:09:33,-23.1203,-134.9692,77.32,73,100,10.71,overcast clouds
9,Veraval,IN,2022-01-29 21:09:34,20.9,70.3667,67.03,43,3,7.96,clear sky
10,Ondjiva,AO,2022-01-29 21:09:34,-17.0667,15.7333,72.59,71,96,8.08,moderate rain
11,Pitimbu,BR,2022-01-29 21:09:34,-7.4706,-34.8086,79.39,78,66,7.81,broken clouds
12,San Pedro,PH,2022-01-29 21:09:35,14.35,121.0167,79.36,90,3,3.04,clear sky
13,Alibag,IN,2022-01-29 21:09:35,18.6411,72.8792,71.67,62,2,4.56,clear sky
14,Severo-Kurilsk,RU,2022-01-29 21:09:35,50.6789,156.125,23.59,77,90,18.97,overcast clouds
15,Qaanaaq,GL,2022-01-29 21:09:36,77.484,-69.3632,0.36,64,100,11.1,overcast clouds
16,Villa Carlos Paz,AR,2022-01-29 21:09:36,-31.4241,-64.4978,81.25,10,0,5.99,clear sky
17,Hobart,AU,2022-01-29 21:09:36,-42.8794,147.3294,62.02,69,100,1.01,overcast clouds
18,Margate,GB,2022-01-29 21:09:37,51.3813,1.3862,48.31,67,45,8.99,scattered clouds
19,Petropavlovsk-Kamchatskiy,RU,2022-01-29 21:09:37,53.0452,158.6483,18.19,100,75,4.47,broken clouds
20,Copiapo,CL,2022-01-29 21:09:37,-27.3667,-70.3333,69.49,43,0,10.02,clear sky
21,Campbell River,CA,2022-01-29 21:09:37,50.0163,-125.2446,39.25,89,100,5.26,overcast clouds
22,Usinsk,RU,2022-01-29 21:09:38,65.9939,57.5281,12.15,92,100,19.42,overcast clouds
23,Cap Malheureux,MU,2022-01-29 21:09:38,-19.9842,57.6142,79.47,74,87,3.0,overcast clouds
24,Merrill,US,2022-01-29 21:09:38,45.1805,-89.6835,22.8,65,100,6.91,overcast clouds
25,Tarpon Springs,US,2022-01-29 21:09:39,28.1461,-82.7568,51.06,56,0,1.99,clear sky
26,Albany,US,2022-01-29 21:09:39,42.6001,-73.9662,15.37,61,100,7.0,overcast clouds
27,Yellowknife,CA,2022-01-29 21:06:24,62.456,-114.3525,-4.59,94,82,5.86,broken clouds
28,Upernavik,GL,2022-01-29 21:05:36,72.7868,-56.1549,1.8,93,100,8.5,overcast clouds
29,Tuktoyaktuk,CA,2022-01-29 21:09:40,69.4541,-133.0374,-8.73,95,100,16.89,overcast clouds
30,Punta Arenas,CL,2022-01-29 21:09:40,-53.15,-70.9167,53.71,54,75,17.27,broken clouds
31,Taboga,IT,2022-01-29 21:09:40,46.2663,13.1092,36.88,66,31,3.58,scattered clouds
32,Naliya,IN,2022-01-29 21:09:41,23.2667,68.8333,63.59,79,0,6.24,clear sky
33,Ibra,OM,2022-01-29 21:09:41,22.6906,58.5334,64.83,62,3,2.26,clear sky
34,Khandyga,RU,2022-01-29 21:09:41,62.6667,135.6,-41.03,99,59,1.95,broken clouds
35,Hithadhoo,MV,2022-01-29 21:09:41,-0.6,73.0833,80.87,67,89,3.11,overcast clouds
36,Victoria,HK,2022-01-29 21:05:24,22.2855,114.1577,60.24,86,100,11.43,overcast clouds
37,Auki,SB,2022-01-29 21:09:42,-8.7676,160.7034,80.1,86,99,5.73,overcast clouds
38,Keti Bandar,PK,2022-01-29 21:09:42,24.1447,67.4497,69.17,74,0,8.9,clear sky
39,Lompoc,US,2022-01-29 21:08:06,34.6391,-120.4579,68.85,39,0,4.61,clear sky
40,Dunmore East,IE,2022-01-29 21:09:43,52.1514,-6.9861,44.33,79,0,3.44,clear sky
41,Alberdi,AR,2022-01-29 21:09:43,-32.8899,-60.6906,90.03,37,0,3.0,clear sky
42,Bengkulu,ID,2022-01-29 21:09:43,-3.8004,102.2655,75.88,91,100,4.25,heavy intensity rain
43,Thompson,CA,2022-01-29 21:08:58,55.7435,-97.8558,-0.15,84,94,3.78,overcast clouds
44,Mamlyutka,KZ,2022-01-29 21:10:44,54.9375,68.5394,3.09,92,100,6.44,overcast clouds
45,Pasighat,IN,2022-01-29 21:10:44,28.0667,95.3333,50.11,68,1,3.65,clear sky
46,Hilo,US,2022-01-29 21:10:44,19.7297,-155.09,78.53,55,20,8.05,few clouds
47,Kaitangata,NZ,2022-01-29 21:08:11,-46.2817,169.8464,56.39,93,100,4.25,light rain
48,Vestmannaeyjar,IS,2022-01-29 21:10:45,63.4427,-20.2734,40.37,67,100,18.05,overcast clouds
49,Flin Flon,CA,2022-01-29 21:10:45,54.7682,-101.865,6.84,84,95,0.92,overcast clouds
50,Srednekolymsk,RU,2022-01-29 21:10:45,67.45,153.6833,-24.95,100,93,4.14,overcast clouds
51,Bredasdorp,ZA,2022-01-29 21:10:46,-34.5322,20.0403,64.27,72,5,10.98,clear sky
52,Luderitz,NA,2022-01-29 21:10:46,-26.6481,15.1594,67.57,80,73,8.81,broken clouds
53,Mataura,NZ,2022-01-29 21:10:46,-46.1927,168.8643,57.36,93,100,2.57,light rain
54,Coquimbo,CL,2022-01-29 21:10:46,-29.9533,-71.3436,67.73,68,0,13.8,clear sky
55,Ilulissat,GL,2022-01-29 21:10:47,69.2167,-51.1,12.22,57,100,16.11,overcast clouds
56,Barrow,US,2022-01-29 21:10:36,71.2906,-156.7887,-7.58,77,100,11.5,overcast clouds
57,Kazachinskoye,RU,2022-01-29 21:10:47,57.6953,93.2761,-3.82,99,100,3.09,overcast clouds
58,Busselton,AU,2022-01-29 21:08:36,-33.65,115.3333,67.05,91,5,14.34,clear sky
59,Georgetown,MY,2022-01-29 21:09:38,5.4112,100.3354,81.9,84,20,0.0,few clouds
60,Mount Isa,AU,2022-01-29 21:09:47,-20.7333,139.5,74.97,100,75,6.91,broken clouds
61,Narsaq,GL,2022-01-29 21:10:48,60.9167,-46.05,14.22,96,100,2.48,light snow
62,Horqueta,PY,2022-01-29 21:10:48,-23.3428,-57.0597,94.96,26,1,8.01,clear sky
63,Khatanga,RU,2022-01-29 21:10:48,71.9667,102.5,-4.34,99,100,5.53,overcast clouds
64,San Patricio,US,2022-01-29 21:10:49,28.017,-97.5169,67.01,25,54,5.39,broken clouds
65,Tawang,IN,2022-01-29 21:10:49,27.5833,91.8667,22.89,72,32,6.11,scattered clouds
66,Tulnici,RO,2022-01-29 21:10:49,45.9167,26.6667,27.77,76,48,9.04,scattered clouds
67,Carnarvon,AU,2022-01-29 21:10:50,-24.8667,113.6333,77.07,88,84,10.36,broken clouds
68,Mar Del Plata,AR,2022-01-29 21:10:50,-38.0023,-57.5575,84.22,90,0,18.01,clear sky
69,Ushuaia,AR,2022-01-29 21:10:50,-54.8,-68.3,51.94,89,100,3.13,light rain
70,Portland,US,2022-01-29 21:09:10,45.5234,-122.6762,52.56,54,20,1.99,few clouds
71,Chapais,CA,2022-01-29 21:10:51,49.7834,-74.8492,-0.33,88,6,2.3,clear sky
72,Komsomolskiy,UZ,2022-01-29 21:10:51,40.4272,71.7189,36.32,87,75,0.0,fog
73,Muscat,OM,2022-01-29 21:10:51,23.6139,58.5922,68.02,63,1,4.0,clear sky
74,Saskylakh,RU,2022-01-29 21:10:52,71.9167,114.0833,-21.84,100,99,3.44,overcast clouds
75,Byron Bay,AU,2022-01-29 21:10:52,-28.65,153.6167,73.87,81,61,8.77,broken clouds
76,Jacareacanga,BR,2022-01-29 21:10:52,-6.2222,-57.7528,73.54,97,100,2.28,overcast clouds
77,New Norfolk,AU,2022-01-29 21:10:53,-42.7826,147.0587,61.66,61,23,1.01,few clouds
78,Hambantota,LK,2022-01-29 21:10:53,6.1241,81.1185,77.95,82,73,6.8,broken clouds
79,Port Blair,IN,2022-01-29 21:10:53,11.6667,92.75,75.92,79,66,8.75,broken clouds
80,Vaini,TO,2022-01-29 21:08:06,-21.2,-175.2,81.46,78,100,16.84,overcast clouds
81,Clyde River,CA,2022-01-29 21:10:54,70.4692,-68.5914,-12.71,97,100,3.4,overcast clouds
82,Hamilton,US,2022-01-29 21:06:29,39.1834,-84.5333,26.2,58,40,1.01,scattered clouds
83,Grand Gaube,MU,2022-01-29 21:10:54,-20.0064,57.6608,79.38,74,90,3.0,overcast clouds
84,Berlevag,NO,2022-01-29 21:10:54,70.8578,29.0864,19.4,79,98,5.84,overcast clouds
85,Cidreira,BR,2022-01-29 21:11:55,-30.1811,-50.2056,73.67,58,56,12.64,broken clouds
86,Bontang,ID,2022-01-29 21:11:55,0.1333,117.5,78.46,81,100,1.34,overcast clouds
87,Sidi Ali,DZ,2022-01-29 21:11:56,36.0998,0.4206,51.03,43,0,9.19,clear sky
88,Port Alfred,ZA,2022-01-29 21:09:17,-33.5906,26.891,70.18,83,46,12.37,scattered clouds
89,Semnan,IR,2022-01-29 21:11:56,35.5729,53.3971,34.68,48,0,2.68,clear sky
90,Cabo San Lucas,MX,2022-01-29 21:11:56,22.8909,-109.9124,80.62,56,0,7.0,clear sky
91,Paka,MY,2022-01-29 21:08:09,4.6374,103.4368,74.05,87,51,3.18,broken clouds
92,Saldanha,ZA,2022-01-29 21:11:57,-33.0117,17.9442,65.03,87,0,16.91,clear sky
93,Bukama,CD,2022-01-29 21:11:57,-9.2,25.85,69.67,97,100,0.98,moderate rain
94,Egvekinot,RU,2022-01-29 21:11:36,66.3167,-179.1667,-6.32,65,12,2.59,few clouds
95,Mbini,GQ,2022-01-29 21:11:57,1.574,9.6134,80.74,82,100,6.76,overcast clouds
96,Langsa,ID,2022-01-29 21:11:58,4.4683,97.9683,73.6,96,46,3.09,scattered clouds
97,Belyy Yar,RU,2022-01-29 21:11:58,53.6039,91.3903,-20.31,76,40,0.0,smoke
98,Kinablangan,PH,2022-01-29 21:11:58,7.6947,126.5503,75.94,84,95,3.89,overcast clouds
99,Inuvik,CA,2022-01-29 21:11:59,68.3499,-133.7218,-21.6,95,92,4.83,overcast clouds
100,Aklavik,CA,2022-01-29 21:11:59,68.2191,-135.0107,-19.21,90,91,4.94,overcast clouds
101,Imeni Stepana Razina,RU,2022-01-29 21:11:59,54.8932,44.2963,19.74,97,100,4.54,light snow
102,Provideniya,RU,2022-01-29 21:11:59,64.3833,-173.3,2.66,86,4,5.01,clear sky
103,Castro,BR,2022-01-29 21:08:09,-24.7911,-50.0119,60.17,99,100,6.11,overcast clouds
104,Pevek,RU,2022-01-29 21:12:00,69.7008,170.3133,-18.06,99,82,3.44,broken clouds
105,Nemuro,JP,2022-01-29 21:12:00,43.3236,145.575,17.29,76,57,17.16,broken clouds
106,Bluff,NZ,2022-01-29 21:12:00,-46.6,168.3333,58.39,88,100,6.85,overcast clouds
107,Strezhevoy,RU,2022-01-29 21:12:01,60.7333,77.5889,-2.02,97,100,4.45,overcast clouds
108,Itagiba,BR,2022-01-29 21:12:01,-14.2836,-39.8428,76.66,88,93,2.42,light rain
109,Lagos,NG,2022-01-29 21:10:54,6.5833,3.75,75.79,58,90,1.77,overcast clouds
110,Isangel,VU,2022-01-29 21:12:02,-19.55,169.2667,80.17,88,100,15.5,heavy intensity rain
111,Kavieng,PG,2022-01-29 21:11:02,-2.5744,150.7967,82.18,75,100,7.36,light rain
112,Umm Kaddadah,SD,2022-01-29 21:12:02,13.6017,26.6876,57.61,18,6,13.82,clear sky
113,Puerto Ayora,EC,2022-01-29 21:12:02,-0.7393,-90.3518,82.36,71,28,9.35,scattered clouds
114,Lebu,CL,2022-01-29 21:12:03,-37.6167,-73.65,64.4,76,2,10.96,clear sky
115,Laguna,US,2022-01-29 21:12:03,38.421,-121.4238,66.04,49,0,1.99,clear sky
116,Ribeira Grande,PT,2022-01-29 21:12:03,38.5167,-28.7,59.4,67,20,5.75,few clouds
117,Iqaluit,CA,2022-01-29 21:12:04,63.7506,-68.5145,-16.46,92,100,3.8,overcast clouds
118,Butaritari,KI,2022-01-29 21:07:39,3.0707,172.7902,82.11,76,25,19.89,light rain
119,Kloulklubed,PW,2022-01-29 21:12:04,7.0419,134.2556,75.7,77,69,8.37,broken clouds
120,Bilma,NE,2022-01-29 21:12:05,18.6853,12.9164,61.03,18,1,10.92,clear sky
121,Norman Wells,CA,2022-01-29 21:09:32,65.282,-126.8329,-18.67,98,36,2.86,scattered clouds
122,Souillac,MU,2022-01-29 21:12:05,-20.5167,57.5167,79.36,74,100,12.35,overcast clouds
123,Ban Nahin,LA,2022-01-29 21:12:05,18.2418,104.2122,68.04,82,52,4.47,broken clouds
124,Longyearbyen,SJ,2022-01-29 21:12:06,78.2186,15.6401,8.44,66,0,14.97,clear sky
125,Avarua,CK,2022-01-29 21:12:06,-21.2078,-159.775,82.45,78,20,9.22,few clouds
126,Puerto Quijarro,BO,2022-01-29 21:11:10,-17.7833,-57.7667,80.08,81,88,2.53,overcast clouds
127,Pervomayskoye,RU,2022-01-29 21:13:06,43.919,46.7102,36.66,87,100,11.18,overcast clouds
128,San Rafael,AR,2022-01-29 21:13:07,-34.6177,-68.3301,90.95,24,0,16.93,clear sky
129,Taltal,CL,2022-01-29 21:13:07,-25.4,-70.4833,68.79,69,8,7.67,clear sky
130,Champerico,GT,2022-01-29 21:13:07,14.3,-91.9167,90.77,63,3,12.73,clear sky
131,Mokolo,CM,2022-01-29 21:13:08,10.7398,13.8019,63.0,26,100,6.33,overcast clouds
132,Gayny,RU,2022-01-29 21:13:08,60.3071,54.3241,6.4,98,95,3.58,overcast clouds
133,Quatre Cocos,MU,2022-01-29 21:13:08,-20.2078,57.7625,79.09,71,97,14.32,overcast clouds
134,Roslyakovo,RU,2022-01-29 21:13:08,69.043,33.1991,14.72,100,92,1.68,overcast clouds
135,Tahe,CN,2022-01-29 21:13:09,52.3333,124.7333,-1.66,79,16,7.74,few clouds
136,Saint George,US,2022-01-29 21:12:20,37.1041,-113.5841,64.87,15,0,1.99,clear sky
137,Te Anau,NZ,2022-01-29 21:10:21,-45.4167,167.7167,57.67,88,100,1.41,light rain
138,Chicama,PE,2022-01-29 21:13:09,-7.8447,-79.1469,68.54,62,81,10.83,broken clouds
139,Sitka,US,2022-01-29 21:13:10,57.0531,-135.33,37.29,81,100,14.97,moderate rain
140,Akhmeta,GE,2022-01-29 21:13:10,42.0311,45.2075,34.32,56,27,5.28,scattered clouds
141,Marawi,PH,2022-01-29 21:13:10,7.9986,124.2928,66.65,94,86,0.76,overcast clouds
142,Atuona,PF,2022-01-29 21:12:29,-9.8,-139.0333,77.72,75,18,13.67,few clouds
143,Kapaa,US,2022-01-29 21:13:11,22.0752,-159.319,80.58,72,20,1.99,few clouds
144,Murmashi,RU,2022-01-29 21:13:11,68.8154,32.8115,14.41,100,75,0.0,broken clouds
145,Chuy,UY,2022-01-29 21:13:11,-33.6971,-53.4616,74.12,61,18,11.32,few clouds
146,Comodoro Rivadavia,AR,2022-01-29 21:13:12,-45.8667,-67.5,87.66,8,0,23.02,clear sky
147,Maragogi,BR,2022-01-29 21:13:12,-9.0122,-35.2225,76.41,73,100,6.02,overcast clouds
148,Batemans Bay,AU,2022-01-29 21:13:12,-35.7167,150.1833,75.2,95,96,2.19,overcast clouds
149,Suntar,RU,2022-01-29 21:13:13,62.1444,117.6319,-17.23,97,56,4.83,broken clouds
150,San Luis,AR,2022-01-29 21:10:05,-33.295,-66.3356,88.5,23,0,3.62,clear sky
151,Asyut,EG,2022-01-29 21:13:13,27.181,31.1837,50.52,48,0,7.11,clear sky
152,Urdoma,RU,2022-01-29 21:13:13,61.7533,48.5442,15.48,94,100,7.29,light snow
153,Jinchang,CN,2022-01-29 21:13:14,38.4953,102.1739,17.24,58,26,11.12,scattered clouds
154,Beringovskiy,RU,2022-01-29 21:10:22,63.05,179.3167,-11.65,100,97,3.38,overcast clouds
155,Hobyo,SO,2022-01-29 21:13:14,5.3505,48.5268,76.84,78,17,23.15,few clouds
156,Saint-Philippe,RE,2022-01-29 21:11:04,-21.3585,55.7679,76.59,85,55,9.06,light rain
157,Necochea,AR,2022-01-29 21:13:14,-38.5473,-58.7368,90.03,40,1,18.07,clear sky
158,Santo Antonio Do Ica,BR,2022-01-29 21:09:18,-3.1022,-67.9397,92.73,46,73,2.95,light rain
159,Marshall,US,2022-01-29 21:09:39,34.3834,-86.3333,39.96,33,0,1.01,clear sky
160,Sao Cristovao,BR,2022-01-29 21:13:15,-11.0147,-37.2064,80.51,78,75,4.61,broken clouds
161,Ende,ID,2022-01-29 21:13:15,-8.8432,121.6623,77.97,86,100,6.2,overcast clouds
162,Mehamn,NO,2022-01-29 21:13:15,71.0357,27.8492,19.35,86,75,11.5,broken clouds
163,Auch,FR,2022-01-29 21:13:16,43.65,0.5833,39.25,87,2,1.01,clear sky
164,Santa Lucia,ES,2022-01-29 21:11:46,27.9117,-15.5407,56.77,55,100,10.36,haze
165,Kupino,RU,2022-01-29 21:13:16,54.3663,77.2981,1.51,89,27,9.35,scattered clouds
166,Nakamura,JP,2022-01-29 21:13:17,32.9833,132.9333,39.04,73,100,3.76,overcast clouds
167,Jamestown,US,2022-01-29 21:10:42,42.097,-79.2353,16.09,48,0,5.01,clear sky
168,Vila Franca Do Campo,PT,2022-01-29 21:10:34,37.7167,-25.4333,59.2,74,58,8.97,broken clouds
169,Bend,US,2022-01-29 21:09:15,44.0582,-121.3153,52.38,37,0,1.01,clear sky
170,Borogontsy,RU,2022-01-29 21:13:17,62.6683,131.1683,-37.17,100,69,1.83,broken clouds
171,Pangai,TO,2022-01-29 21:13:17,-19.8,-174.35,82.09,76,83,13.2,broken clouds
172,Pokaran,IN,2022-01-29 21:13:18,26.9167,71.9167,61.25,18,0,4.68,clear sky
173,Mildura,AU,2022-01-29 21:13:18,-34.2,142.15,69.76,73,0,8.05,clear sky
174,Hasaki,JP,2022-01-29 21:14:18,35.7333,140.8333,27.0,61,65,19.8,broken clouds
175,Port-Gentil,GA,2022-01-29 21:14:19,-0.7193,8.7815,81.41,81,90,9.82,overcast clouds
176,Touros,BR,2022-01-29 21:14:19,-5.1989,-35.4608,79.7,77,95,10.31,overcast clouds
177,Okhotsk,RU,2022-01-29 21:14:19,59.3833,143.3,13.48,81,100,14.61,overcast clouds
178,Rawson,AR,2022-01-29 21:14:20,-43.3002,-65.1023,83.1,32,62,7.85,broken clouds
179,Greenwood,US,2022-01-29 21:14:20,34.1668,-82.1165,43.48,15,0,7.0,clear sky
180,Am Timan,TD,2022-01-29 21:14:20,11.0297,20.2827,75.49,18,41,7.56,scattered clouds
181,Goderich,CA,2022-01-29 21:13:16,43.7501,-81.7165,17.91,79,89,6.67,overcast clouds
182,Bambous Virieux,MU,2022-01-29 21:10:17,-20.3428,57.7575,79.21,70,99,13.65,overcast clouds
183,Vardo,NO,2022-01-29 21:14:21,70.3705,31.1107,21.31,78,93,0.96,overcast clouds
184,Ponta Do Sol,PT,2022-01-29 21:10:24,32.6667,-17.1,65.03,67,25,5.06,scattered clouds
185,Marsa Matruh,EG,2022-01-29 21:14:21,31.3525,27.2453,54.52,62,15,14.18,few clouds
186,Emerald,AU,2022-01-29 21:11:07,-23.5333,148.1667,74.34,70,25,5.88,scattered clouds
187,Goroka,PG,2022-01-29 21:14:22,-6.0834,145.3873,60.15,96,97,2.24,overcast clouds
188,Kodiak,US,2022-01-29 21:10:36,57.79,-152.4072,35.11,55,0,24.16,clear sky
189,East London,ZA,2022-01-29 21:10:36,-33.0153,27.9116,72.01,80,83,10.71,broken clouds
190,Port Elizabeth,ZA,2022-01-29 21:14:22,-33.918,25.5701,67.1,83,0,8.7,clear sky
191,Dikson,RU,2022-01-29 21:14:22,73.5069,80.5464,3.61,93,99,21.88,overcast clouds
192,Sarangani,PH,2022-01-29 21:14:23,5.4033,125.4636,80.71,75,86,7.43,overcast clouds
193,Darnah,LY,2022-01-29 21:14:23,32.767,22.6367,52.36,65,53,23.4,broken clouds
194,Vao,NC,2022-01-29 21:14:23,-22.6667,167.4833,78.66,87,95,11.79,overcast clouds
195,Atoyac,MX,2022-01-29 21:14:24,20.0167,-103.5333,79.16,27,7,2.66,clear sky
196,Kashi,CN,2022-01-29 21:14:24,39.4547,75.9797,24.22,55,25,1.66,scattered clouds
197,Sao Sepe,BR,2022-01-29 21:14:24,-30.1606,-53.5653,85.55,29,0,11.59,clear sky
198,Havelock,US,2022-01-29 21:14:25,34.8791,-76.9013,39.18,52,40,14.0,scattered clouds
199,Yangcun,CN,2022-01-29 21:14:25,39.3639,117.0603,19.38,42,0,0.96,clear sky
200,Namibe,AO,2022-01-29 21:14:25,-15.1961,12.1522,72.28,76,100,6.69,overcast clouds
201,Staryy Nadym,RU,2022-01-29 21:14:26,65.6118,72.6842,-8.07,96,99,8.9,overcast clouds
202,Namtsy,RU,2022-01-29 21:14:26,62.7161,129.6658,-30.89,100,75,1.74,broken clouds
203,Nikolskoye,RU,2022-01-29 21:14:26,59.7035,30.7861,27.72,85,100,14.97,light snow
204,Bubaque,GW,2022-01-29 21:14:27,11.2833,-15.8333,78.44,72,92,21.16,overcast clouds
205,Dicabisagan,PH,2022-01-29 21:14:27,17.0818,122.4157,75.96,88,11,3.11,few clouds
206,Hit,IQ,2022-01-29 21:14:27,33.6416,42.8251,49.71,60,31,3.38,scattered clouds
207,Hoi An,VN,2022-01-29 21:14:28,15.8794,108.335,75.16,90,52,4.05,broken clouds
208,Talnakh,RU,2022-01-29 21:14:28,69.4865,88.3972,-0.89,97,100,9.53,overcast clouds
209,Svetlogorsk,BY,2022-01-29 21:14:28,52.6333,29.7333,22.95,93,97,12.1,overcast clouds
210,Springbok,ZA,2022-01-29 21:14:28,-29.6643,17.8865,79.16,35,21,4.68,few clouds
211,Lavrentiya,RU,2022-01-29 21:14:29,65.5833,-171.0,-3.82,83,3,4.07,clear sky
212,Sabha,LY,2022-01-29 21:14:29,27.0377,14.4283,49.3,29,47,7.0,scattered clouds
213,Dingle,PH,2022-01-29 21:14:29,10.9995,122.6711,74.53,91,9,1.7,clear sky
214,Marsh Harbour,BS,2022-01-29 21:14:30,26.5412,-77.0636,59.67,60,19,28.05,few clouds
215,Mahebourg,MU,2022-01-29 21:14:30,-20.4081,57.7,79.25,83,20,5.75,few clouds
216,Burnie,AU,2022-01-29 21:14:30,-41.0667,145.9167,61.95,93,73,7.45,broken clouds
217,Abay,KZ,2022-01-29 21:14:31,49.6311,72.8539,21.58,94,99,11.34,overcast clouds
218,Fairview,US,2022-01-29 21:15:31,40.8126,-73.999,19.99,65,100,12.66,overcast clouds
219,Pangnirtung,CA,2022-01-29 21:10:42,66.1451,-65.7125,-19.37,99,100,4.07,overcast clouds
220,Anadyr,RU,2022-01-29 21:15:31,64.75,177.4833,-14.01,83,20,0.0,mist
221,Wicklow,IE,2022-01-29 21:15:32,53.0,-6.4167,37.96,75,81,4.94,broken clouds
222,Moba,CN,2022-01-29 21:15:32,33.2288,105.0179,26.55,89,100,2.37,overcast clouds
223,Caernarfon,GB,2022-01-29 21:15:32,53.1413,-4.2702,46.62,61,20,5.75,few clouds
224,Kibre Mengist,ET,2022-01-29 21:15:33,5.8833,38.9833,55.67,33,9,3.0,clear sky
225,Geraldton,AU,2022-01-29 21:14:30,-28.7667,114.6,68.41,94,0,6.91,clear sky
226,Inta,RU,2022-01-29 21:15:33,66.0317,60.1659,10.04,87,100,7.99,overcast clouds
227,Yulara,AU,2022-01-29 21:13:33,-25.2406,130.9889,76.91,77,63,17.96,broken clouds
228,Rapid Valley,US,2022-01-29 21:15:33,44.0625,-103.1463,56.37,14,0,1.99,clear sky
229,Sungairaya,ID,2022-01-29 21:15:34,0.7,108.9,76.55,88,100,3.96,overcast clouds
230,Sao Filipe,CV,2022-01-29 21:15:34,14.8961,-24.4956,71.11,71,100,13.0,overcast clouds
231,Mao,ES,2022-01-29 21:15:34,39.8885,4.2658,43.36,100,0,4.61,clear sky
232,Tottori,JP,2022-01-29 21:13:50,35.5,134.2333,39.67,72,100,8.1,overcast clouds
233,Erenhot,CN,2022-01-29 21:15:35,43.6475,111.9767,7.34,89,100,5.26,overcast clouds
234,Agadez,NE,2022-01-29 21:15:35,19.75,10.25,59.11,18,38,10.07,scattered clouds
235,Kavaratti,IN,2022-01-29 21:15:35,10.5669,72.642,80.51,74,75,6.06,broken clouds
236,Maniitsoq,GL,2022-01-29 21:15:35,65.4167,-52.9,8.65,76,100,28.45,light snow
237,La Asuncion,VE,2022-01-29 21:15:36,11.0333,-63.8628,83.93,61,98,13.8,overcast clouds
238,Sherghati,IN,2022-01-29 21:15:36,24.5667,84.7833,47.82,56,0,5.28,clear sky
239,Shubarshi,KZ,2022-01-29 21:15:36,48.5872,57.1869,15.62,95,95,9.22,overcast clouds
240,Christchurch,NZ,2022-01-29 21:10:46,-43.5333,172.6333,71.91,74,40,5.01,scattered clouds
241,Lensk,RU,2022-01-29 21:15:37,60.7253,114.9278,-6.57,97,100,6.71,overcast clouds
242,Faanui,PF,2022-01-29 21:15:37,-16.4833,-151.75,80.04,74,18,11.59,light rain
243,Oruro,BO,2022-01-29 21:15:37,-17.9833,-67.15,54.09,71,75,14.97,heavy intensity rain
244,Xai-Xai,MZ,2022-01-29 21:15:38,-25.0519,33.6442,75.74,83,100,5.75,overcast clouds
245,Yar-Sale,RU,2022-01-29 21:15:38,66.8333,70.8333,-9.54,97,93,8.77,overcast clouds
246,Nisia Floresta,BR,2022-01-29 21:15:38,-6.0911,-35.2086,80.98,77,98,7.29,overcast clouds
247,Alyangula,AU,2022-01-29 21:13:28,-13.8483,136.4192,82.31,78,100,17.52,light rain
248,Tanete,ID,2022-01-29 21:15:39,-3.9443,119.7848,75.87,93,100,2.95,overcast clouds
249,Stornoway,GB,2022-01-29 21:15:39,58.2093,-6.3865,40.93,82,75,8.01,broken clouds
250,Kutum,SD,2022-01-29 21:14:30,14.2,24.6667,55.18,17,21,10.51,few clouds
251,Odienne,CI,2022-01-29 21:15:39,9.51,-7.5692,80.49,17,72,4.79,broken clouds
252,Buluang,PH,2022-01-29 21:15:40,13.3068,123.3425,74.97,93,55,2.04,broken clouds
253,Vernon,CA,2022-01-29 21:15:40,50.2581,-119.2691,35.13,70,100,10.0,overcast clouds
254,Bethel,US,2022-01-29 21:15:40,41.3712,-73.414,18.48,62,100,5.01,light snow
255,Maltahohe,NA,2022-01-29 21:15:40,-24.8333,16.9833,77.83,42,96,16.8,overcast clouds
256,Pionerskiy,RU,2022-01-29 21:15:41,54.9508,20.2275,42.75,83,100,41.07,overcast clouds
257,Saint-Francois,FR,2022-01-29 21:15:41,46.4154,3.9054,39.67,94,100,4.61,light intensity drizzle
258,Ostrovnoy,RU,2022-01-29 21:11:08,68.0531,39.5131,12.7,88,99,13.15,overcast clouds
259,Zhaozhou,CN,2022-01-29 21:15:41,45.6833,125.3167,-4.9,91,5,6.82,clear sky
260,Jiuquan,CN,2022-01-29 21:15:42,39.7432,98.5174,13.91,59,6,4.45,clear sky
261,Oistins,BB,2022-01-29 21:12:22,13.0667,-59.5333,78.89,69,40,13.8,scattered clouds
262,Kokopo,PG,2022-01-29 21:15:42,-4.352,152.2633,78.06,85,100,3.89,light rain
263,Salisbury,GB,2022-01-29 21:14:59,51.0693,-1.7957,46.47,82,48,5.75,scattered clouds
264,Coihaique,CL,2022-01-29 21:15:43,-45.5752,-72.0662,58.95,72,100,6.91,light intensity shower rain
265,Kushima,JP,2022-01-29 21:16:43,31.4583,131.2333,44.11,79,100,4.16,overcast clouds
266,Fairbanks,US,2022-01-29 21:16:43,64.8378,-147.7164,-13.99,74,0,0.0,clear sky
267,Shirokiy,RU,2022-01-29 21:16:44,49.758,129.523,-23.48,100,100,3.67,overcast clouds
268,Shimoda,JP,2022-01-29 21:16:44,34.6667,138.95,38.1,73,66,9.51,broken clouds
269,Palembang,ID,2022-01-29 21:16:44,-2.9167,104.7458,78.89,94,20,0.0,haze
270,Arlit,NE,2022-01-29 21:14:34,18.7369,7.3853,64.17,14,1,7.85,clear sky
271,Hervey Bay,AU,2022-01-29 21:16:44,-25.2986,152.8535,77.02,88,72,8.99,broken clouds
272,Deputatskiy,RU,2022-01-29 21:16:45,69.3,139.9,-18.06,87,100,2.17,overcast clouds
273,Palestine,PS,2022-01-29 21:16:45,31.9216,35.2033,39.94,93,3,2.68,clear sky
274,Airai,TL,2022-01-29 21:14:23,-8.9266,125.4092,60.71,92,100,3.29,overcast clouds
275,Linxia,CN,2022-01-29 21:16:45,35.6003,103.2064,7.77,85,44,2.68,scattered clouds
276,Samarai,PG,2022-01-29 21:16:46,-10.6167,150.6667,80.17,78,100,8.23,overcast clouds
277,Golden,US,2022-01-29 21:12:29,39.7555,-105.2211,59.0,17,20,4.61,few clouds
278,Prince Rupert,CA,2022-01-29 21:16:46,54.3161,-130.3201,42.89,93,100,8.05,light rain
279,Arman,RU,2022-01-29 21:16:47,59.7,150.1667,7.41,82,100,13.8,overcast clouds
280,Yima,CN,2022-01-29 21:16:47,34.7381,111.8839,27.68,94,49,1.16,scattered clouds
281,Stawell,AU,2022-01-29 21:16:47,-37.05,142.7667,64.31,79,15,10.58,few clouds
282,Skowhegan,US,2022-01-29 21:13:43,44.7651,-69.7192,13.24,88,100,18.81,snow
283,Urengoy,RU,2022-01-29 21:16:48,65.9667,78.3667,-14.64,99,98,7.47,overcast clouds
284,Mazagao,BR,2022-01-29 21:16:48,-0.115,-51.2894,78.85,96,100,4.03,light rain
285,Harstad,NO,2022-01-29 21:16:48,68.799,16.5293,25.83,70,100,5.12,overcast clouds
286,Chenove,FR,2022-01-29 21:16:49,47.2932,5.0046,38.01,100,100,9.22,mist
287,Sedro-Woolley,US,2022-01-29 21:16:49,48.5039,-122.2361,49.6,69,0,3.0,clear sky
288,Gamba,GA,2022-01-29 21:14:48,-2.65,10.0,77.47,88,90,4.61,overcast clouds
289,Bedford,GB,2022-01-29 21:11:50,52.1346,-0.4663,46.74,68,30,15.77,scattered clouds
290,Oriximina,BR,2022-01-29 21:16:49,-1.7656,-55.8661,74.59,96,100,4.45,light rain
291,Praia Da Vitoria,PT,2022-01-29 21:13:11,38.7333,-27.0667,58.75,87,39,10.09,scattered clouds
292,Pachino,IT,2022-01-29 21:16:50,36.7186,15.0907,47.61,56,3,9.66,clear sky
293,Rongcheng,CN,2022-01-29 21:16:50,30.634,117.8517,33.91,98,100,3.58,light snow
294,Bandarbeyla,SO,2022-01-29 21:13:53,9.4942,50.8122,75.76,65,94,21.99,overcast clouds
295,Saint-Augustin,CA,2022-01-29 21:16:51,51.226,-58.6502,7.83,79,100,15.21,overcast clouds
296,Lagoa,PT,2022-01-29 21:14:36,39.05,-27.9833,58.5,73,77,13.76,broken clouds
297,Chuguyevka,RU,2022-01-29 21:16:51,44.1653,133.8633,0.72,96,100,5.41,overcast clouds
298,Chillicothe,US,2022-01-29 21:16:51,39.3331,-82.9824,24.91,58,0,8.05,clear sky
299,Bundaberg,AU,2022-01-29 21:15:49,-24.85,152.35,75.49,93,75,1.99,broken clouds
300,Jimo,CN,2022-01-29 21:16:52,36.3897,120.4622,19.18,73,67,4.47,broken clouds
301,Lodwar,KE,2022-01-29 21:16:52,3.1191,35.5973,85.55,34,11,7.16,few clouds
302,Port Hawkesbury,CA,2022-01-29 21:16:52,45.6169,-61.3485,42.39,99,100,14.0,heavy snow
303,Tual,ID,2022-01-29 21:16:53,-5.6667,132.75,83.46,75,100,14.0,overcast clouds
304,Bayonet Point,US,2022-01-29 21:16:53,28.3267,-82.6834,51.19,57,2,7.0,clear sky
305,Severodvinsk,RU,2022-01-29 21:16:53,64.5635,39.8302,17.71,92,93,10.69,overcast clouds
306,Donegal,IE,2022-01-29 21:16:54,54.65,-8.1167,42.84,76,62,4.94,broken clouds
307,Darhan,MN,2022-01-29 21:16:54,49.4867,105.9228,-14.94,99,95,2.84,overcast clouds
308,Fort Nelson,CA,2022-01-29 21:15:38,58.8053,-122.7002,8.19,78,100,9.22,light snow
309,Pyaozerskiy,RU,2022-01-29 21:16:54,65.8333,31.1667,20.88,96,100,5.08,light snow
310,Camalu,MX,2022-01-29 21:17:55,30.85,-116.0667,69.42,29,21,7.85,few clouds
311,Igrim,RU,2022-01-29 21:17:55,63.1906,64.4162,-1.68,96,98,5.26,overcast clouds
312,Yangambi,CD,2022-01-29 21:17:55,0.8102,24.4336,72.32,40,3,2.24,clear sky
313,Atherton,GB,2022-01-29 21:17:56,53.5237,-2.4935,45.95,78,30,4.0,scattered clouds
314,Tigil,RU,2022-01-29 21:17:56,57.8,158.6667,25.29,77,100,10.31,overcast clouds
315,Pacific Grove,US,2022-01-29 21:17:56,36.6177,-121.9166,68.23,53,0,3.0,clear sky
316,Sao Joao Da Barra,BR,2022-01-29 21:17:57,-21.6403,-41.0511,77.09,89,54,9.98,broken clouds
317,Booue,GA,2022-01-29 21:17:57,-0.0921,11.9385,77.52,75,97,3.22,overcast clouds
318,Roma,US,2022-01-29 21:17:57,43.2128,-75.4557,12.38,47,0,1.01,clear sky
319,Novoagansk,RU,2022-01-29 21:17:57,61.9449,76.6625,-2.34,98,100,4.85,overcast clouds
320,Tura,IN,2022-01-29 21:17:58,25.5198,90.2201,50.61,59,0,2.48,clear sky
321,Juwana,ID,2022-01-29 21:17:58,-6.715,111.1514,76.21,91,100,4.65,overcast clouds
322,Fianarantsoa,MG,2022-01-29 21:17:58,-21.4333,47.0833,62.89,89,71,3.67,broken clouds
323,Harper,LR,2022-01-29 21:17:59,4.375,-7.7169,79.97,86,61,6.2,broken clouds
324,Rio Grande,BR,2022-01-29 21:17:59,-32.035,-52.0986,77.11,57,0,13.35,clear sky
325,Husavik,IS,2022-01-29 21:17:59,66.0449,-17.3389,33.71,77,32,19.26,scattered clouds
326,Niquero,CU,2022-01-29 21:14:34,20.0431,-77.5828,79.23,59,1,12.15,clear sky
327,Wanning,CN,2022-01-29 21:18:00,18.8003,110.3967,62.6,87,100,9.42,overcast clouds
328,Kikwit,CD,2022-01-29 21:18:00,-5.041,18.8162,74.7,69,95,0.96,overcast clouds
329,Andrelandia,BR,2022-01-29 21:18:00,-21.7397,-44.3092,69.67,92,91,5.57,light rain
330,Meihekou,CN,2022-01-29 21:18:01,42.5272,125.6753,1.49,85,1,5.95,clear sky
331,Los Llanos De Aridane,ES,2022-01-29 21:13:11,28.6585,-17.9182,58.75,74,9,5.99,clear sky
332,Diamantino,BR,2022-01-29 21:18:01,-14.4086,-56.4461,74.88,94,100,3.69,light rain
333,Qasigiannguit,GL,2022-01-29 21:18:02,68.8193,-51.1922,12.45,72,88,15.1,overcast clouds
334,Puerto Narino,CO,2022-01-29 21:18:02,-3.7703,-70.3831,91.35,42,20,4.32,few clouds
335,Adrar,MR,2022-01-29 21:18:02,20.5022,-10.0711,78.67,11,100,10.65,overcast clouds
336,Piney Green,US,2022-01-29 21:18:03,34.716,-77.3202,39.09,41,20,18.41,few clouds
337,Asekeyevo,RU,2022-01-29 21:18:03,53.5742,52.7972,10.81,96,100,5.19,light snow
338,Port Macquarie,AU,2022-01-29 21:18:03,-31.4333,152.9167,72.9,78,99,2.46,overcast clouds
339,Lahij,YE,2022-01-29 21:18:04,13.1667,44.5833,70.54,74,84,4.61,broken clouds
340,Tautira,PF,2022-01-29 21:16:00,-17.7333,-149.15,84.22,74,100,14.07,overcast clouds
341,Itarema,BR,2022-01-29 21:18:04,-2.9248,-39.9167,79.66,69,96,9.73,overcast clouds
342,Jensen Beach,US,2022-01-29 21:18:04,27.2545,-80.2298,58.05,40,0,1.99,clear sky
343,Nelson Bay,AU,2022-01-29 21:18:05,-32.7167,152.15,77.95,77,91,1.99,overcast clouds
344,Pingxiang,CN,2022-01-29 21:18:05,27.6167,113.85,35.2,99,100,2.57,overcast clouds
345,Cayenne,GF,2022-01-29 21:18:05,4.9333,-52.3333,79.09,79,0,1.99,clear sky
346,Ormstown,CA,2022-01-29 21:18:06,45.1334,-73.9992,11.77,83,100,2.3,overcast clouds
347,Hovd,MN,2022-01-29 21:18:06,48.0056,91.6419,-13.16,72,13,2.57,few clouds
348,Joensuu,FI,2022-01-29 21:18:06,62.6012,29.7632,25.29,90,100,20.71,light shower snow
349,Hofn,IS,2022-01-29 21:18:07,64.2539,-15.2082,29.08,54,16,6.24,few clouds
350,Iwanai,JP,2022-01-29 21:18:07,42.9744,140.5089,17.91,70,100,18.68,light snow
351,Grindavik,IS,2022-01-29 21:13:13,63.8424,-22.4338,36.07,80,75,16.11,broken clouds
352,Esperance,AU,2022-01-29 21:18:07,-33.8667,121.9,64.85,79,0,12.26,clear sky
353,Brive-La-Gaillarde,FR,2022-01-29 21:18:08,45.25,1.5,38.28,27,6,2.8,clear sky
354,Douentza,ML,2022-01-29 21:18:08,14.9951,-2.9517,74.43,13,35,6.93,scattered clouds
355,Waipawa,NZ,2022-01-29 21:18:08,-41.4122,175.5153,69.46,54,35,2.68,scattered clouds
356,Nizwa,OM,2022-01-29 21:18:09,22.9333,57.5333,69.13,37,4,5.23,clear sky
357,Adwa,ET,2022-01-29 21:19:09,14.1646,38.8955,60.39,62,20,3.0,few clouds
358,Caxito,AO,2022-01-29 21:19:09,-8.5785,13.6643,76.82,91,100,1.28,overcast clouds
359,Baykit,RU,2022-01-29 21:19:10,61.67,96.37,-2.51,100,99,0.78,overcast clouds
360,Atasu,KZ,2022-01-29 21:19:10,48.6814,71.6433,20.43,95,100,11.74,light snow
361,Stepnyak,KZ,2022-01-29 21:19:10,52.8339,70.7803,1.4,92,41,7.2,scattered clouds
362,Leningradskiy,RU,2022-01-29 21:19:10,69.3833,178.4167,-9.83,90,55,5.03,broken clouds
363,Libertador General San Martin,AR,2022-01-29 21:19:11,-23.8064,-64.7876,88.97,40,59,5.5,broken clouds
364,Antofagasta,CL,2022-01-29 21:18:20,-23.65,-70.4,72.21,60,19,8.77,few clouds
365,Svecha,RU,2022-01-29 21:19:11,58.2785,47.5164,12.07,96,100,6.11,overcast clouds
366,Saint-Pierre,RE,2022-01-29 21:19:12,-21.3393,55.4781,74.88,83,38,6.91,scattered clouds
367,Port Keats,AU,2022-01-29 21:19:12,-14.25,129.55,81.0,85,100,18.25,overcast clouds
368,Broome,US,2022-01-29 21:19:12,42.2506,-75.833,13.21,60,0,5.99,clear sky
369,Trelew,AR,2022-01-29 21:19:12,-43.249,-65.3051,92.61,9,52,1.59,broken clouds
370,Babushkin,RU,2022-01-29 21:19:13,51.7122,105.8647,-0.45,96,95,5.1,overcast clouds
371,Newport,GB,2022-01-29 21:18:24,51.5877,-2.9984,45.66,83,33,4.63,scattered clouds
372,Pemangkat,ID,2022-01-29 21:19:13,1.1667,108.9667,76.46,88,100,3.42,overcast clouds
373,Aksu,CN,2022-01-29 21:15:45,41.1231,80.2644,26.38,46,100,3.89,overcast clouds
374,Xining,CN,2022-01-29 21:15:56,36.6167,101.7667,10.31,61,13,1.81,few clouds
375,Boston,US,2022-01-29 21:14:50,42.3584,-71.0598,20.23,89,100,7.0,heavy snow
376,Sitrah,BH,2022-01-29 21:19:14,26.1547,50.6206,60.8,69,0,5.01,clear sky
377,Hirakud,IN,2022-01-29 21:19:14,21.5167,83.8667,56.01,38,3,1.74,clear sky
378,Ginir,ET,2022-01-29 21:19:15,7.1333,40.7,58.64,18,6,5.3,clear sky
379,Penha,BR,2022-01-29 21:19:15,-26.7694,-48.6458,71.73,94,75,8.05,broken clouds
380,Gohpur,IN,2022-01-29 21:19:15,26.8833,93.6333,52.11,71,0,1.61,clear sky
381,Nanakuli,US,2022-01-29 21:19:15,21.3906,-158.1547,80.55,57,0,12.66,clear sky
382,Kysyl-Syr,RU,2022-01-29 21:15:56,63.8986,122.7617,-16.73,100,100,4.34,overcast clouds
383,Eldama Ravine,KE,2022-01-29 21:19:16,0.0516,35.7308,55.08,76,51,1.95,broken clouds
384,Pombia,IT,2022-01-29 21:19:16,45.653,8.6336,45.52,56,0,4.61,clear sky
385,Bikaner,IN,2022-01-29 21:19:17,28.0167,73.3,59.85,20,17,2.91,few clouds
386,Sioux Lookout,CA,2022-01-29 21:19:17,50.1001,-91.917,10.78,79,100,4.61,overcast clouds
387,Muros,ES,2022-01-29 21:19:17,42.7762,-9.0603,55.9,79,14,5.1,few clouds
388,Hirara,JP,2022-01-29 21:19:17,24.8,125.2833,69.39,80,100,25.3,overcast clouds
389,Kyzyl-Suu,KG,2022-01-29 21:19:18,42.3414,78.0056,20.82,66,97,9.95,overcast clouds
390,Namatanai,PG,2022-01-29 21:19:18,-3.6667,152.4333,80.28,80,100,2.04,overcast clouds
391,Andros Town,BS,2022-01-29 21:19:18,24.7,-77.7667,60.76,57,88,23.44,overcast clouds
392,Warrnambool,AU,2022-01-29 21:17:07,-38.3833,142.4833,65.8,90,96,7.36,overcast clouds
393,Henties Bay,NA,2022-01-29 21:19:19,-22.116,14.2845,63.86,82,46,5.84,scattered clouds
394,Shellbrook,CA,2022-01-29 21:19:19,53.2168,-106.4011,16.83,88,38,0.87,scattered clouds
395,Kamensk-Uralskiy,RU,2022-01-29 21:19:19,56.4185,61.9329,-2.85,100,98,1.74,overcast clouds
396,Korgen,NO,2022-01-29 21:19:20,66.0771,13.8153,30.27,91,100,3.67,overcast clouds
397,Nome,US,2022-01-29 21:19:20,64.5011,-165.4064,-4.85,59,0,3.44,clear sky
398,Gaziantep,TR,2022-01-29 21:17:27,37.0594,37.3825,30.13,93,100,5.75,overcast clouds
399,Aztec,US,2022-01-29 21:19:20,36.8222,-107.9929,53.24,30,0,1.01,clear sky
400,Vanimo,PG,2022-01-29 21:16:26,-2.6741,141.3028,76.08,89,100,7.49,overcast clouds
401,Ulladulla,AU,2022-01-29 21:19:21,-35.35,150.4667,72.77,92,98,1.88,overcast clouds
402,Rockhampton,AU,2022-01-29 21:19:21,-23.3833,150.5,75.09,78,100,8.05,overcast clouds
403,Nola,IT,2022-01-29 21:19:22,40.922,14.5329,49.86,78,6,3.98,clear sky
404,Panjab,AF,2022-01-29 21:20:22,34.388,67.0233,3.43,97,29,2.24,scattered clouds
405,Sri Aman,MY,2022-01-29 21:20:22,1.2376,111.4621,77.05,94,100,0.0,overcast clouds
406,Klyuchi,RU,2022-01-29 21:20:23,52.2667,79.1667,3.56,86,68,10.42,broken clouds
407,Tacuarembo,UY,2022-01-29 21:20:23,-31.7333,-55.9833,85.24,28,0,12.5,clear sky
408,Sembe,CG,2022-01-29 21:20:23,1.6481,14.5806,76.17,29,100,0.36,overcast clouds
409,Sovetskiy,RU,2022-01-29 21:20:23,61.3614,63.5842,3.78,96,100,3.67,overcast clouds
410,Katsuura,JP,2022-01-29 21:17:23,35.1333,140.3,42.19,83,43,14.03,scattered clouds
411,Manokwari,ID,2022-01-29 21:18:05,-0.8667,134.0833,77.38,76,99,5.79,overcast clouds
412,Olinda,BR,2022-01-29 21:20:24,-8.0089,-34.8553,80.33,74,75,2.3,broken clouds
413,Krasnoye,UA,2022-01-29 21:20:24,49.9145,24.6134,33.19,88,99,19.57,light snow
414,Fortuna,US,2022-01-29 21:20:25,40.5982,-124.1573,59.86,75,0,5.99,clear sky
415,Haines Junction,CA,2022-01-29 21:20:25,60.7522,-137.5108,12.15,67,99,12.66,overcast clouds
416,Khurai,IN,2022-01-29 21:20:25,24.0436,78.3319,52.47,40,0,3.11,clear sky
417,Nampula,MZ,2022-01-29 21:20:25,-15.1165,39.2666,75.15,88,75,8.05,broken clouds
418,Ransang,PH,2022-01-29 21:20:26,8.9603,117.5828,77.59,85,36,0.36,scattered clouds
419,Flinders,AU,2022-01-29 21:20:26,-34.5833,150.8552,75.38,84,100,5.99,overcast clouds
420,Caranan,PH,2022-01-29 21:20:26,13.5167,123.0156,77.85,88,71,4.7,broken clouds
421,Lazaro Cardenas,MX,2022-01-29 21:18:43,17.9583,-102.2,83.53,58,0,9.26,clear sky
422,Shache,CN,2022-01-29 21:20:27,38.4167,77.2406,25.72,44,12,2.71,few clouds
423,Kokorevka,RU,2022-01-29 21:20:27,52.5872,34.2778,23.43,95,100,6.67,overcast clouds
424,Ayan,RU,2022-01-29 21:20:27,56.45,138.1667,0.72,78,100,20.85,overcast clouds
425,Okato,NZ,2022-01-29 21:20:28,-39.2,173.8833,66.69,69,7,6.02,clear sky
426,Springdale,US,2022-01-29 21:20:28,36.1867,-94.1288,57.31,32,0,18.01,clear sky
427,Tiznit,MA,2022-01-29 21:20:28,29.5833,-9.5,58.26,31,0,15.39,clear sky
428,Kruisfontein,ZA,2022-01-29 21:17:05,-34.0033,24.7314,64.89,90,0,4.68,clear sky
429,Tarko-Sale,RU,2022-01-29 21:20:29,64.9225,77.785,-13.65,99,91,9.13,overcast clouds
430,Terrace,CA,2022-01-29 21:17:14,54.5163,-128.6035,40.91,93,75,18.41,light rain
431,Borba,BR,2022-01-29 21:20:29,-4.3878,-59.5939,74.05,99,100,0.16,moderate rain
432,Skelleftea,SE,2022-01-29 21:20:29,64.7507,20.9528,25.16,69,100,4.0,overcast clouds
433,Noumea,NC,2022-01-29 21:16:59,-22.2763,166.4572,80.01,99,50,9.31,scattered clouds
434,Hualmay,PE,2022-01-29 21:20:30,-11.0964,-77.6139,73.96,73,60,11.65,broken clouds
435,Oktyabrskiy,RU,2022-01-29 21:20:30,54.4815,53.471,6.76,96,100,4.76,overcast clouds
436,Sorland,NO,2022-01-29 21:17:10,67.667,12.6934,35.46,73,100,14.74,light rain
437,Sola,VU,2022-01-29 21:20:30,-13.8833,167.55,83.21,77,100,21.65,overcast clouds
438,Gweta,BW,2022-01-29 21:20:31,-20.1833,25.2333,74.12,73,83,8.7,light rain
439,Mayor Pablo Lagerenza,PY,2022-01-29 21:20:31,-19.9309,-60.7718,97.05,22,3,8.39,clear sky
440,Uruacu,BR,2022-01-29 21:16:32,-14.5247,-49.1408,73.62,93,99,5.08,light rain
441,Zhigalovo,RU,2022-01-29 21:20:31,54.8097,105.1578,-18.58,100,100,0.92,overcast clouds
442,Hasanabad,IR,2022-01-29 21:20:32,36.5465,61.0543,41.22,75,100,2.3,overcast clouds
443,Mogadishu,SO,2022-01-29 21:19:38,2.0371,45.3438,77.25,80,28,22.41,scattered clouds
444,Manado,ID,2022-01-29 21:20:32,1.487,124.8455,75.97,100,40,2.3,scattered clouds
445,Honiara,SB,2022-01-29 21:17:16,-9.4333,159.95,78.76,86,100,0.49,overcast clouds
446,Saint-Joseph,RE,2022-01-29 21:20:33,-21.3667,55.6167,73.78,83,42,9.86,scattered clouds
447,Vila Velha,BR,2022-01-29 21:15:43,-20.3297,-40.2925,80.94,85,20,10.0,few clouds
448,Antalaha,MG,2022-01-29 21:20:33,-14.9003,50.2788,73.56,88,14,5.46,few clouds
449,Lola,GN,2022-01-29 21:20:33,7.8,-8.5333,76.44,24,66,3.69,broken clouds
450,Caravelas,BR,2022-01-29 21:20:34,-17.7125,-39.2481,79.68,80,0,10.56,clear sky
451,Tiksi,RU,2022-01-29 21:17:18,71.6872,128.8694,-8.61,99,53,4.79,broken clouds
452,Naze,JP,2022-01-29 21:21:34,28.3667,129.4833,56.79,78,100,13.96,overcast clouds
453,Moree,AU,2022-01-29 21:20:38,-29.4667,149.85,73.42,73,57,9.22,broken clouds
454,Iwaki,JP,2022-01-29 21:21:35,37.05,140.8833,35.35,64,61,5.99,broken clouds
455,Port Hardy,CA,2022-01-29 21:21:35,50.6996,-127.4199,46.76,87,100,21.85,light rain
456,Nanortalik,GL,2022-01-29 21:21:35,60.1432,-45.2371,19.78,65,100,12.53,light snow
457,Avera,US,2022-01-29 21:19:17,33.194,-82.5271,43.75,22,0,13.87,clear sky
458,Ous,RU,2022-01-29 21:21:36,60.9058,61.5186,7.14,96,100,3.56,overcast clouds
459,Coolum Beach,AU,2022-01-29 21:21:36,-26.5333,153.1,76.33,92,66,10.8,broken clouds
460,Phonhong,LA,2022-01-29 21:21:36,18.5007,102.4166,66.58,63,14,2.64,few clouds
461,Taonan,CN,2022-01-29 21:21:36,45.3333,122.7833,-2.58,82,0,4.83,clear sky
462,Kjollefjord,NO,2022-01-29 21:21:37,70.9457,27.3465,19.22,86,75,11.5,broken clouds
463,Lasa,IT,2022-01-29 21:21:37,46.6166,10.7002,47.66,60,3,8.55,clear sky
464,Dali,CN,2022-01-29 21:21:38,25.7,100.1833,35.98,68,0,2.84,clear sky
465,Taoudenni,ML,2022-01-29 21:21:38,22.6783,-3.9836,74.34,11,100,12.26,overcast clouds
466,Herat,AF,2022-01-29 21:21:38,34.5,62.0,41.23,46,0,3.67,clear sky
467,Tobol,KZ,2022-01-29 21:21:38,52.6844,62.5794,8.47,93,100,4.5,overcast clouds
468,Hermosillo,MX,2022-01-29 21:21:03,29.0667,-110.9667,82.31,15,0,0.0,clear sky
469,Sechura,PE,2022-01-29 21:21:39,-5.5569,-80.8222,79.21,62,58,16.93,broken clouds
470,Mocuba,MZ,2022-01-29 21:21:39,-16.8392,36.9856,71.69,98,9,2.77,clear sky
471,Pisco,PE,2022-01-29 21:21:39,-13.7,-76.2167,73.45,68,20,14.97,few clouds
472,Kenora,CA,2022-01-29 21:21:40,49.8167,-94.4337,13.98,85,100,9.22,overcast clouds
473,Santa Rosa,PH,2022-01-29 21:21:40,14.3122,121.1114,80.11,90,3,2.39,clear sky
474,Wakkanai,JP,2022-01-29 21:21:40,45.4094,141.6739,18.14,73,100,16.49,snow
475,Neuquen,AR,2022-01-29 21:20:31,-38.9516,-68.0591,94.89,18,0,6.91,clear sky
476,Monrovia,LR,2022-01-29 21:21:41,6.3005,-10.7969,78.57,81,98,7.74,overcast clouds
477,Evensk,RU,2022-01-29 21:21:41,61.95,159.2333,15.4,80,100,11.39,overcast clouds
478,Xuddur,SO,2022-01-29 21:21:41,4.1213,43.8894,75.22,28,19,10.31,few clouds
479,Manjacaze,MZ,2022-01-29 21:21:42,-24.7117,33.8828,72.72,85,100,4.09,overcast clouds
480,Palmer,US,2022-01-29 21:21:42,42.1584,-72.3287,15.15,79,100,7.0,light snow
481,Jiwani,PK,2022-01-29 21:21:42,25.05,61.7417,72.09,78,0,11.45,clear sky
482,Olden,NO,2022-01-29 21:21:43,61.8364,6.8064,38.91,97,100,11.39,snow
483,Skjervoy,NO,2022-01-29 21:21:15,70.0311,20.9714,27.05,60,6,10.18,clear sky
484,Slave Lake,CA,2022-01-29 21:21:43,55.2834,-114.769,35.58,69,0,0.0,clear sky
485,Dimapur,IN,2022-01-29 21:21:43,25.9,93.7333,50.85,79,0,1.21,clear sky
486,Khokhlovo,RU,2022-01-29 21:21:44,59.1492,37.3998,7.09,99,98,3.38,overcast clouds
487,Juneau,US,2022-01-29 21:21:44,58.3019,-134.4197,41.22,89,100,0.0,moderate rain
488,Phetchaburi,TH,2022-01-29 21:21:44,12.9667,99.5833,69.24,84,59,4.29,broken clouds
489,Cap-Haitien,HT,2022-01-29 21:21:45,19.7578,-72.2042,82.35,61,75,10.36,broken clouds
490,Ancud,CL,2022-01-29 21:20:04,-41.8697,-73.8203,68.43,84,53,12.39,broken clouds
491,Salalah,OM,2022-01-29 21:21:45,17.0151,54.0924,71.69,73,0,1.14,clear sky
492,Ambon,ID,2022-01-29 21:21:45,-3.6954,128.1814,80.74,78,40,6.91,scattered clouds
493,Wladyslawowo,PL,2022-01-29 21:21:46,54.7909,18.4009,44.94,87,100,40.94,overcast clouds
494,Constitucion,CL,2022-01-29 21:22:46,-35.3333,-72.4167,65.12,74,51,10.33,broken clouds
495,Kenai,US,2022-01-29 21:22:46,60.5544,-151.2583,23.09,95,100,3.44,overcast clouds
496,Fare,PF,2022-01-29 21:22:47,-16.7,-151.0167,80.58,74,11,12.08,light rain
497,Ayagoz,KZ,2022-01-29 21:22:47,47.9714,80.4392,10.02,88,100,3.78,overcast clouds
498,Mount Gambier,AU,2022-01-29 21:22:47,-37.8333,140.7667,62.51,94,100,8.05,overcast clouds
499,Ellon,GB,2022-01-29 21:22:48,57.3641,-2.0731,41.52,65,8,19.57,clear sky
500,Chissamba,AO,2022-01-29 21:22:48,-12.1667,17.3333,63.91,93,100,3.2,overcast clouds
501,Gunnedah,AU,2022-01-29 21:22:48,-30.9833,150.25,73.02,67,96,4.36,overcast clouds
502,Shizunai,JP,2022-01-29 21:22:49,42.3339,142.3669,20.07,65,98,16.89,overcast clouds
503,Tomatlan,MX,2022-01-29 21:22:49,19.9333,-105.25,87.21,40,0,8.39,clear sky
504,Olga,RU,2022-01-29 21:22:49,43.7444,135.2892,7.41,57,17,14.0,few clouds
505,Moose Factory,CA,2022-01-29 21:22:49,51.2585,-80.6094,-0.4,71,0,5.75,clear sky
506,La Palma,US,2022-01-29 21:22:50,33.8464,-118.0467,71.15,22,100,1.99,overcast clouds
507,Surgut,RU,2022-01-29 21:22:50,61.25,73.4167,-1.91,84,0,4.0,clear sky
508,Malpe,IN,2022-01-29 21:22:50,13.35,74.7167,76.3,70,16,2.15,few clouds
509,Dakar,SN,2022-01-29 21:18:34,14.6937,-17.4441,70.68,74,96,19.3,overcast clouds
510,Dolgoye,RU,2022-01-29 21:22:51,52.8,37.2167,27.43,97,100,7.85,light snow
511,Erzin,TR,2022-01-29 21:22:51,36.9559,36.2,41.72,75,99,6.53,overcast clouds
512,Zvishavane,ZW,2022-01-29 21:22:51,-20.3267,30.0665,69.06,89,100,5.95,moderate rain
513,Bambanglipuro,ID,2022-01-29 21:22:52,-7.95,110.2833,77.38,87,100,3.98,overcast clouds
514,Mabaruma,GY,2022-01-29 21:22:52,8.2,-59.7833,78.55,69,27,5.73,scattered clouds
515,Thinadhoo,MV,2022-01-29 21:22:52,0.5333,72.9333,81.23,72,100,4.74,overcast clouds
516,Manowa,SL,2022-01-29 21:22:52,8.1667,-10.75,77.74,70,94,3.47,overcast clouds
517,Conde,BR,2022-01-29 21:22:53,-7.2597,-34.9075,78.26,89,75,8.05,broken clouds
518,Presidencia Roque Saenz Pena,AR,2022-01-29 21:22:53,-26.7852,-60.4388,97.34,15,0,7.29,clear sky
519,Pechory,RU,2022-01-29 21:22:53,57.8164,27.6119,26.06,93,100,20.74,snow
520,Buraydah,SA,2022-01-29 21:22:54,26.326,43.975,52.25,35,0,17.45,clear sky
521,Sinnamary,GF,2022-01-29 21:22:54,5.3833,-52.95,78.8,79,81,7.74,broken clouds
522,Saint Simons,US,2022-01-29 21:18:19,31.1352,-81.3901,48.07,29,0,12.66,clear sky
523,Seymchan,RU,2022-01-29 21:22:54,62.8833,152.4333,-8.19,98,100,5.57,light snow
524,Bojnurd,IR,2022-01-29 21:22:55,37.4747,57.329,26.55,93,0,2.3,clear sky
525,Rocha,UY,2022-01-29 21:22:55,-34.4833,-54.3333,74.93,59,8,12.17,clear sky
526,Chulman,RU,2022-01-29 21:22:55,56.8479,124.9104,-9.02,96,100,8.55,overcast clouds
527,Trincomalee,LK,2022-01-29 21:22:56,8.5711,81.2335,79.02,82,21,5.75,few clouds
528,Rincon,US,2022-01-29 21:22:56,32.296,-81.2354,46.58,26,20,17.27,few clouds
529,Manzhouli,CN,2022-01-29 21:22:56,49.6,117.4333,-12.35,95,13,5.12,few clouds
530,Bushehr,IR,2022-01-29 21:22:57,28.9684,50.8385,57.29,47,20,16.11,few clouds
531,Dunedin,NZ,2022-01-29 21:18:56,-45.8742,170.5036,59.2,79,100,4.27,light rain
532,Leshukonskoye,RU,2022-01-29 21:22:57,64.8989,45.7622,13.01,94,100,7.05,overcast clouds
533,Belmonte,BR,2022-01-29 21:22:57,-15.8631,-38.8828,81.1,79,16,10.2,few clouds
534,San Vicente,AR,2022-01-29 21:22:58,-26.6167,-54.1333,69.33,76,93,6.06,overcast clouds
535,Chokurdakh,RU,2022-01-29 21:22:58,70.6333,147.9167,-13.09,88,100,1.61,overcast clouds
536,Klaksvik,FO,2022-01-29 21:22:58,62.2266,-6.589,34.72,63,60,28.54,broken clouds
537,Karasuyama,JP,2022-01-29 21:22:58,36.65,140.15,34.05,59,66,7.58,broken clouds
538,Vangaindrano,MG,2022-01-29 21:22:59,-23.35,47.6,74.86,80,53,4.68,broken clouds
539,Mokrousovo,RU,2022-01-29 21:22:59,55.8103,66.7653,7.93,92,100,5.68,overcast clouds
540,Dapitan,PH,2022-01-29 21:22:59,8.6464,123.4208,78.04,83,61,1.77,broken clouds
541,Seybaplaya,MX,2022-01-29 21:24:00,19.65,-90.6667,72.86,55,74,16.44,broken clouds
542,Borovichi,RU,2022-01-29 21:24:00,58.3878,33.9155,18.48,92,100,9.75,light snow
543,Opuwo,NA,2022-01-29 21:24:00,-18.0607,13.84,70.88,41,100,5.59,overcast clouds
544,Ariquemes,BR,2022-01-29 21:24:01,-9.9133,-63.0408,73.87,98,100,3.76,light rain
545,Eyl,SO,2022-01-29 21:24:01,7.9803,49.8164,74.86,68,74,21.0,broken clouds
546,Marystown,CA,2022-01-29 21:24:01,47.1666,-55.1483,37.85,100,100,15.01,overcast clouds
547,Yumen,CN,2022-01-29 21:24:02,40.2833,97.2,13.66,62,0,5.59,clear sky
548,Tilichiki,RU,2022-01-29 21:24:02,60.4667,166.1,18.82,71,100,14.54,overcast clouds
549,Icatu,BR,2022-01-29 21:24:02,-2.7758,-44.0658,75.63,91,100,4.47,heavy intensity rain
550,Fushun,CN,2022-01-29 21:24:03,41.8558,123.9233,1.11,63,0,4.18,clear sky
551,San Francisco,US,2022-01-29 21:19:18,37.7749,-122.4194,66.67,52,75,5.01,broken clouds
552,Seddon,AU,2022-01-29 21:24:03,-37.8068,144.8916,70.72,88,100,1.01,overcast clouds
553,Daru,PG,2022-01-29 21:24:03,-9.0763,143.2092,78.44,85,100,10.76,heavy intensity rain
554,Kaura Namoda,NG,2022-01-29 21:24:04,12.5898,6.5779,68.65,14,59,10.67,broken clouds
555,Kahului,US,2022-01-29 21:24:04,20.8947,-156.47,80.62,52,40,16.11,scattered clouds
556,Poya,NC,2022-01-29 21:19:47,-21.35,165.15,81.46,81,66,6.73,broken clouds
557,Timbiqui,CO,2022-01-29 21:24:04,2.7717,-77.6654,74.89,93,99,4.81,light rain
558,Gimli,CA,2022-01-29 21:24:05,50.6336,-96.9907,12.13,72,99,11.5,overcast clouds
559,Camacha,PT,2022-01-29 21:21:43,33.0833,-16.3333,61.56,82,40,10.36,scattered clouds
560,San Cristobal,VE,2022-01-29 21:24:05,7.7669,-72.225,78.98,43,9,7.54,clear sky
561,Polunochnoye,RU,2022-01-29 21:24:05,60.8697,60.4153,5.7,97,100,2.62,overcast clouds
562,Farim,GW,2022-01-29 21:24:06,12.4839,-15.2217,82.69,15,98,5.95,overcast clouds
563,Damghan,IR,2022-01-29 21:24:06,36.1683,54.348,34.56,51,0,2.98,clear sky
564,Tieli,CN,2022-01-29 21:24:06,46.95,128.05,-7.78,100,99,2.71,overcast clouds
565,Kapit,MY,2022-01-29 21:24:07,2.0167,112.9333,72.88,99,100,0.36,overcast clouds
566,La Ronge,CA,2022-01-29 21:24:07,55.1001,-105.2842,8.85,66,75,3.44,broken clouds
567,Santiago Del Estero,AR,2022-01-29 21:24:07,-27.7951,-64.2615,89.56,24,0,4.54,clear sky
568,Teknaf,BD,2022-01-29 21:24:08,20.8624,92.3058,55.54,75,0,9.53,clear sky
569,Kawalu,ID,2022-01-29 21:24:08,-7.3817,108.2082,72.84,96,100,1.48,overcast clouds
570,Torbay,CA,2022-01-29 21:24:08,47.6666,-52.7314,33.58,92,100,21.85,overcast clouds
571,Nishihara,JP,2022-01-29 21:24:09,26.1842,127.7558,61.88,88,75,10.36,broken clouds
572,Perth,AU,2022-01-29 21:19:50,-31.9333,115.8333,73.04,79,0,2.3,clear sky
573,Esil,KZ,2022-01-29 21:24:09,51.9556,66.4042,18.39,96,100,7.09,overcast clouds
574,Kerman,IR,2022-01-29 21:24:09,30.2832,57.0788,49.86,27,0,9.22,clear sky
575,Mandalgovi,MN,2022-01-29 21:24:10,45.7625,106.2708,-0.72,90,100,17.11,overcast clouds
576,Hammerfest,NO,2022-01-29 21:21:23,70.6634,23.6821,18.05,100,40,0.0,scattered clouds
577,Mirnyy,RU,2022-01-29 21:24:10,62.5353,113.9611,-15.77,75,38,11.01,scattered clouds
578,Ahipara,NZ,2022-01-29 21:24:10,-35.1667,173.1667,68.52,63,65,8.95,broken clouds
579,Yinchuan,CN,2022-01-29 21:24:11,38.4681,106.2731,25.41,47,42,3.85,scattered clouds
580,Tuatapere,NZ,2022-01-29 21:24:11,-46.1333,167.6833,57.9,93,100,5.01,overcast clouds
581,York,US,2022-01-29 21:24:11,40.1254,-77.0,23.79,32,44,18.72,scattered clouds
582,Steinfurt,DE,2022-01-29 21:24:11,52.1505,7.3366,49.08,80,99,23.62,overcast clouds
583,Cockburn Town,TC,2022-01-29 21:20:02,21.4612,-71.1419,78.03,70,0,7.99,clear sky
584,Lethem,GY,2022-01-29 21:24:12,3.3803,-59.7968,91.44,36,86,12.93,overcast clouds
585,Lermontovka,RU,2022-01-29 21:24:12,47.1453,134.3383,-22.27,99,28,3.49,scattered clouds
586,Esna,EG,2022-01-29 21:24:12,25.2934,32.554,51.55,46,1,8.88,clear sky
587,Paragominas,BR,2022-01-29 21:20:33,-2.9667,-47.4833,73.29,97,100,3.29,overcast clouds
588,Half Moon Bay,US,2022-01-29 21:24:13,37.4636,-122.4286,66.97,52,0,1.99,clear sky
589,Ladario,BR,2022-01-29 21:25:13,-19.0047,-57.6017,79.09,94,75,2.3,broken clouds
590,Garoua,CM,2022-01-29 21:25:13,9.3,13.4,72.0,23,0,3.44,clear sky
591,Lincoln,US,2022-01-29 21:22:38,40.8,-96.667,62.01,30,0,5.99,clear sky
592,Parabel,RU,2022-01-29 21:25:14,58.6978,81.4825,-6.88,100,99,3.87,overcast clouds
593,Joshimath,IN,2022-01-29 21:25:14,30.5667,79.5667,36.39,46,4,8.19,clear sky
594,Zlatoust,RU,2022-01-29 21:25:14,55.1711,59.6508,-0.9,97,57,1.16,broken clouds
595,Petatlan,MX,2022-01-29 21:25:15,17.5167,-101.2667,87.6,50,1,6.51,clear sky
596,Bogorodskoye,RU,2022-01-29 21:25:15,56.55,37.8833,10.08,98,98,3.18,overcast clouds
597,Seoul,KR,2022-01-29 21:25:15,37.5683,126.9778,20.64,76,0,1.14,clear sky
598,De-Kastri,RU,2022-01-29 21:25:16,51.4667,140.7833,-17.28,99,86,6.06,overcast clouds
599,Trinidad,BO,2022-01-29 21:25:16,-14.8333,-64.9,85.98,62,75,9.22,broken clouds
600,Krasyliv,UA,2022-01-29 21:25:16,49.6519,26.9725,24.6,82,99,14.16,overcast clouds
601,Collie,AU,2022-01-29 21:25:17,-33.3667,116.15,62.98,94,1,5.21,clear sky
602,Ketchikan,US,2022-01-29 21:25:17,55.3422,-131.6461,42.78,93,99,7.9,light rain
603,Sayyan,YE,2022-01-29 21:25:17,15.1718,44.3244,52.29,48,7,1.63,clear sky
604,Magadan,RU,2022-01-29 21:25:18,59.5667,150.8,13.19,78,100,12.28,overcast clouds
605,Puri,IN,2022-01-29 21:25:18,19.8,85.85,55.92,41,36,4.92,scattered clouds
606,Tongchuan,CN,2022-01-29 21:25:18,35.0806,109.0897,23.72,85,43,2.71,scattered clouds
607,Balakovo,RU,2022-01-29 21:25:18,52.0278,47.8007,29.75,98,100,6.58,snow
608,Knyaze-Volkonskoye,RU,2022-01-29 21:25:19,48.4642,135.4567,-19.86,100,65,3.62,broken clouds
609,San Jeronimo,PE,2022-01-29 21:25:19,-11.9472,-75.2829,54.25,84,99,6.98,light rain
610,Mezokeresztes,HU,2022-01-29 21:25:19,47.8333,20.7,34.57,97,100,16.87,light snow
611,Westport,US,2022-01-29 21:25:20,41.1415,-73.3579,19.74,65,100,10.0,overcast clouds
612,Yeppoon,AU,2022-01-29 21:25:20,-23.1333,150.7333,74.98,82,99,14.74,overcast clouds
613,Acajutla,SV,2022-01-29 21:25:20,13.5928,-89.8275,88.81,54,28,9.19,scattered clouds
614,Duldurga,RU,2022-01-29 21:25:21,50.6761,113.5931,-12.87,97,19,4.27,few clouds
615,Beaverlodge,CA,2022-01-29 21:25:21,55.2166,-119.4361,29.55,86,100,4.79,light snow
616,Vila Nova De Milfontes,PT,2022-01-29 21:25:21,37.7238,-8.7828,59.25,55,26,6.33,scattered clouds
617,Sistranda,NO,2022-01-29 21:25:21,63.7256,8.834,37.9,63,80,18.57,light rain
618,Santa Maria,BR,2022-01-29 21:25:22,-29.6842,-53.8069,79.9,44,20,14.97,few clouds
619,Mariinskiy Posad,RU,2022-01-29 21:25:22,56.115,47.718,7.74,96,100,6.4,light snow
620,Cherskiy,RU,2022-01-29 21:25:22,68.75,161.3,-29.11,100,43,1.95,scattered clouds
621,Colares,PT,2022-01-29 21:25:23,38.7992,-9.4469,59.9,40,9,5.01,clear sky
622,Okha,RU,2022-01-29 21:25:23,53.5739,142.9478,-15.23,95,87,8.61,overcast clouds
623,Pundaguitan,PH,2022-01-29 21:25:23,6.3711,126.1689,80.1,77,78,3.89,broken clouds
624,Kupang,ID,2022-01-29 21:23:06,-10.1667,123.5833,79.38,89,20,8.05,few clouds
625,Mwinilunga,ZM,2022-01-29 21:25:24,-11.7358,24.4293,63.03,98,100,3.78,light rain
626,Jian,CN,2022-01-29 21:25:24,27.1172,114.9793,37.8,90,100,6.42,overcast clouds
627,Parit Buntar,MY,2022-01-29 21:25:24,5.1267,100.4932,81.95,89,72,3.74,broken clouds
628,Morehead,US,2022-01-29 21:20:31,37.2711,-87.1764,35.15,53,40,1.01,scattered clouds
629,Vanino,RU,2022-01-29 21:25:25,49.0869,140.2543,-8.79,78,16,6.51,few clouds
630,Pyay,MM,2022-01-29 21:25:25,18.8167,95.2167,56.5,46,21,2.95,few clouds
631,Porbandar,IN,2022-01-29 21:25:25,21.6422,69.6093,65.73,53,0,8.81,clear sky
632,Jardim,BR,2022-01-29 21:21:31,-21.4803,-56.1381,88.14,49,57,2.3,broken clouds
633,Bowen,AU,2022-01-29 21:25:26,-20.0167,148.2333,75.42,79,8,9.98,clear sky
634,Turukhansk,RU,2022-01-29 21:25:26,65.8167,87.9833,2.05,95,100,10.02,overcast clouds
635,Ponta Delgada,PT,2022-01-29 21:25:26,37.7333,-25.6667,58.5,77,20,8.05,few clouds
636,Ilebo,CD,2022-01-29 21:26:27,-4.3167,20.5833,72.39,81,100,0.81,overcast clouds
637,Pindushi,RU,2022-01-29 21:26:27,62.9152,34.58,12.92,95,100,9.91,overcast clouds
638,Guerrero Negro,MX,2022-01-29 21:26:25,27.9769,-114.0611,71.19,29,8,12.35,clear sky
639,Vanderhoof,CA,2022-01-29 21:26:27,54.0166,-124.0198,33.03,87,100,2.93,overcast clouds
640,Assisi,IT,2022-01-29 21:26:28,43.0691,12.6165,40.75,59,30,3.0,scattered clouds
641,Zharkent,KZ,2022-01-29 21:26:28,44.1628,80.0,25.88,56,100,1.05,overcast clouds
642,Mayumba,GA,2022-01-29 21:26:28,-3.432,10.6554,77.54,90,72,3.2,broken clouds
643,Arkhipo-Osipovka,RU,2022-01-29 21:26:29,44.37,38.52,41.09,78,43,15.08,scattered clouds
644,Mae Sai,TH,2022-01-29 21:26:29,20.4335,99.8762,56.89,61,0,2.59,clear sky
645,Ca Mau,VN,2022-01-29 21:26:29,9.1769,105.15,73.49,86,45,2.28,scattered clouds
646,Bilibino,RU,2022-01-29 21:26:30,68.0546,166.4372,-4.36,87,100,2.8,overcast clouds
647,Yaan,NG,2022-01-29 21:26:30,7.3833,8.5667,80.96,15,70,7.2,broken clouds
648,Lixourion,GR,2022-01-29 21:26:30,38.2019,20.4314,47.5,65,14,16.24,few clouds
649,Chingirlau,KZ,2022-01-29 21:26:31,51.095,54.0814,12.54,96,100,6.51,snow
650,Sosnovo-Ozerskoye,RU,2022-01-29 21:26:31,52.5249,111.5418,-27.36,100,92,2.06,overcast clouds
651,Dauriya,RU,2022-01-29 21:26:31,49.9333,116.8667,-20.61,99,32,1.28,scattered clouds
652,Dong Hoi,VN,2022-01-29 21:26:32,17.4833,106.6,71.13,94,98,6.46,overcast clouds
653,Ambovombe,MG,2022-01-29 21:26:32,-25.1667,46.0833,72.36,87,4,10.4,clear sky
654,Miandrivazo,MG,2022-01-29 21:26:32,-19.5167,45.4667,78.67,72,0,2.04,clear sky
655,Odlabari,IN,2022-01-29 21:26:32,26.8333,88.6167,54.37,66,14,2.93,few clouds
656,Karratha,AU,2022-01-29 21:26:33,-20.7377,116.8463,80.83,62,75,14.7,broken clouds
657,Tonder,DK,2022-01-29 21:26:33,54.9331,8.8667,44.6,81,86,13.0,overcast clouds
658,Balkanabat,TM,2022-01-29 21:25:31,39.5108,54.3671,41.5,61,6,5.06,clear sky
659,Alipur,PK,2022-01-29 21:26:33,29.3846,70.9116,56.52,30,48,6.69,scattered clouds
660,Benjamin Constant,BR,2022-01-29 21:26:34,-4.3831,-70.0311,91.53,55,20,5.75,few clouds
661,Wagar,SD,2022-01-29 21:26:34,16.1525,36.2032,67.51,58,6,15.03,clear sky
662,Vigrestad,NO,2022-01-29 21:26:34,58.5667,5.7,42.58,73,72,46.75,broken clouds
663,Ponnani,IN,2022-01-29 21:26:35,10.767,75.9252,79.92,72,40,3.53,scattered clouds
664,Jackson,US,2022-01-29 21:23:44,42.4165,-122.8345,61.84,41,0,0.0,clear sky
665,Morden,CA,2022-01-29 21:26:35,49.1919,-98.1014,19.78,73,100,16.11,overcast clouds
666,Atbasar,KZ,2022-01-29 21:26:35,51.8,68.3333,11.12,96,97,4.81,overcast clouds
667,Bom Jesus,BR,2022-01-29 21:26:36,-9.0744,-44.3586,74.48,86,75,4.61,broken clouds
668,Jasper,US,2022-01-29 21:26:36,37.2001,-94.3502,58.95,27,0,7.0,clear sky
669,Thunder Bay,CA,2022-01-29 21:26:36,48.4001,-89.3168,18.55,85,100,2.3,overcast clouds
670,Sandwick,GB,2022-01-29 21:26:37,60.0,-1.25,39.02,65,100,29.93,overcast clouds
671,Baruun-Urt,MN,2022-01-29 21:26:37,46.6806,113.2792,-8.36,88,16,2.33,few clouds
672,Zielona Gora,PL,2022-01-29 21:26:37,51.9355,15.5064,46.17,42,100,26.98,overcast clouds
673,Zarubino,RU,2022-01-29 21:26:37,42.63,131.0922,15.26,62,2,14.54,clear sky
674,Newark,US,2022-01-29 21:22:10,40.7357,-74.1724,20.91,62,100,3.0,overcast clouds
675,Ochakiv,UA,2022-01-29 21:26:38,46.6128,31.5498,24.94,75,40,12.01,scattered clouds
676,Rio Gallegos,AR,2022-01-29 21:26:38,-51.6226,-69.2181,48.25,93,100,20.71,light rain
677,Takoradi,GH,2022-01-29 21:26:38,4.8845,-1.7554,80.04,85,12,5.86,few clouds
678,Porto Nacional,BR,2022-01-29 21:26:39,-10.7081,-48.4172,82.4,91,99,3.89,overcast clouds
679,Shimanovsk,RU,2022-01-29 21:26:39,52.0,127.7,-4.97,90,21,7.7,few clouds
680,Krasnoborsk,RU,2022-01-29 21:26:39,61.5598,45.934,17.19,94,100,6.04,overcast clouds
681,Upington,ZA,2022-01-29 21:26:40,-28.4478,21.2561,84.58,32,99,9.22,overcast clouds
682,Pampa,US,2022-01-29 21:23:59,35.5362,-100.9599,66.34,14,0,8.05,clear sky
683,Presque Isle,US,2022-01-29 21:27:40,46.6811,-68.0159,4.03,81,100,5.99,heavy snow
684,Lingsugur,IN,2022-01-29 21:27:40,16.1667,76.5167,67.68,35,3,4.5,clear sky
685,Unterageri,CH,2022-01-29 21:27:41,47.1364,8.5853,41.43,79,33,5.06,scattered clouds
686,Fallon,US,2022-01-29 21:27:41,39.4735,-118.7774,46.27,31,40,3.44,scattered clouds
687,Bukachacha,RU,2022-01-29 21:27:41,52.9833,116.9167,-13.2,96,5,4.09,clear sky
688,Vila,PT,2022-01-29 21:27:42,42.0304,-8.1588,41.88,43,5,4.56,clear sky
689,Bairiki,KI,2022-01-29 21:25:51,1.3292,172.9752,84.2,79,20,9.22,light rain
690,Kulhudhuffushi,MV,2022-01-29 21:27:42,6.6221,73.07,81.82,76,70,18.97,broken clouds
691,Oranjemund,NA,2022-01-29 21:27:42,-28.55,16.4333,65.75,85,79,12.86,broken clouds
692,Bulawayo,ZW,2022-01-29 21:27:43,-20.15,28.5833,64.94,92,94,15.66,overcast clouds
693,Ayer Tawar,MY,2022-01-29 21:27:43,4.2954,100.7548,77.29,94,20,0.0,few clouds
694,Kedrovyy,RU,2022-01-29 21:27:43,56.1667,91.8167,-12.14,98,44,3.71,scattered clouds
695,Rawlins,US,2022-01-29 21:27:43,41.7911,-107.2387,41.22,22,0,14.65,clear sky
696,Port Augusta,AU,2022-01-29 21:27:44,-32.5,137.7667,76.71,53,73,8.03,broken clouds
697,Doaba,PK,2022-01-29 21:27:44,33.4244,70.7364,47.08,48,1,3.22,clear sky
698,Tessalit,ML,2022-01-29 21:25:26,20.1986,1.0114,69.21,14,72,12.71,broken clouds
699,Xichang,CN,2022-01-29 21:27:44,27.8964,102.2634,35.98,76,0,2.01,clear sky
700,Saint Anthony,US,2022-01-29 21:27:45,45.0205,-93.218,28.94,61,0,5.01,clear sky
701,Finnsnes,NO,2022-01-29 21:27:45,69.2296,17.9811,22.96,86,94,5.84,overcast clouds
